% program   : rnx2rtkp ver.2.4.2
% inp file  : test/data/rinex/07590920.05o
% inp file  : test/data/rinex/07590920.05n
% obs start : 2005/04/02 00:00:00.0 GPST (week1316 518400.0s)
% obs end   : 2005/04/02 00:59:30.0 GPST (week1316 521970.0s)
%
% (lat/lon/height=WGS84/ellipsoidal,Q=1:fix,2:float,3:sbas,4:dgps,5:single,6:ppp,ns=# of satellites)
%  GPST          latitude(deg) longitude(deg)  height(m)   Q  ns   sdn(m)   sde(m)   sdu(m)  sdne(m)  sdeu(m)  sdun(m) age(s)  ratio
1316 518400.000   35.160868976  139.613827672    82.8571   6   7   9.3763   7.1147  20.0773   2.7040  -8.0547  -4.9324   0.00    0.0
1316 518430.000   35.160868796  139.613828463    82.8947   6   7   6.6690   5.0544  14.3650   1.9333  -5.7575  -3.5492   0.00    0.0
1316 518460.000   35.160868562  139.613829049    82.8362   6   7   5.4592   4.1299  11.7660   1.5842  -4.7080  -2.9194   0.00    0.0
1316 518490.000   35.160867874  139.613829045    82.9930   6   7   4.7359   3.5755  10.1990   1.3742  -4.0735  -2.5406   0.00    0.0
1316 518520.000   35.160867286  139.613829212    82.8868   6   7   4.2418   3.1958   9.1222   1.2302  -3.6365  -2.2812   0.00    0.0
1316 518550.000   35.160867372  139.613828767    83.0046   6   7   3.8769   2.9147   8.3233   1.1236  -3.3116  -2.0897   0.00    0.0
1316 518580.000   35.160867612  139.613829015    83.0547   6   7   3.5933   2.6957   7.6999   1.0406  -3.0575  -1.9409   0.00    0.0
1316 518610.000   35.160867800  139.613829527    83.0346   6   7   3.3647   2.5188   7.1956   0.9736  -2.8515  -1.8212   0.00    0.0
1316 518640.000   35.160867768  139.613829562    83.1189   6   7   3.1754   2.3720   6.7765   0.9181  -2.6800  -1.7224   0.00    0.0
1316 518670.000   35.160868145  139.613829508    83.1316   6   7   3.0154   2.2476   6.4208   0.8711  -2.5342  -1.6390   0.00    0.0
1316 518700.000   35.160868721  139.613829701    83.1380   6   7   2.8778   2.1404   6.1140   0.8307  -2.4081  -1.5675   0.00    0.0
1316 518730.000   35.160868756  139.613829698    83.1074   6   7   2.7578   2.0468   5.8456   0.7954  -2.2976  -1.5054   0.00    0.0
1316 518760.000   35.160869003  139.613829643    83.0781   6   7   2.6520   1.9641   5.6081   0.7643  -2.1997  -1.4508   0.00    0.0
1316 518790.000   35.160868921  139.613829750    83.1090   6   7   2.5578   1.8903   5.3960   0.7366  -2.1120  -1.4024   0.00    0.0
1316 518820.000   35.160868953  139.613829932    83.1136   6   7   2.4732   1.8239   5.2049   0.7117  -2.0329  -1.3592   0.00    0.0
1316 518850.000   35.160868939  139.613830057    83.1379   6   7   2.3968   1.7637   5.0315   0.6892  -1.9610  -1.3203   0.00    0.0
1316 518880.000   35.160869246  139.613830045    83.1676   6   7   2.3272   1.7089   4.8732   0.6687  -1.8953  -1.2850   0.00    0.0
1316 518910.000   35.160869474  139.613830146    83.1601   6   7   2.2636   1.6587   4.7279   0.6500  -1.8348  -1.2530   0.00    0.0
1316 518940.000   35.160869570  139.613830290    83.1654   6   7   2.2050   1.6124   4.5939   0.6327  -1.7790  -1.2236   0.00    0.0
1316 518970.000   35.160869643  139.613830351    83.1590   6   7   2.1510   1.5696   4.4697   0.6168  -1.7271  -1.1967   0.00    0.0
1316 519000.000   35.160869767  139.613830383    83.1514   6   7   2.1009   1.5298   4.3541   0.6021  -1.6788  -1.1718   0.00    0.0
1316 519030.000   35.160869968  139.613830380    83.1522   6   7   2.0543   1.4928   4.2462   0.5883  -1.6336  -1.1489   0.00    0.0
1316 519060.000   35.160870010  139.613830429    83.1332   6   7   2.0108   1.4581   4.1451   0.5755  -1.5911  -1.1276   0.00    0.0
1316 519090.000   35.160870167  139.613830492    83.0981   6   7   1.9700   1.4256   4.0502   0.5635  -1.5512  -1.1077   0.00    0.0
1316 519120.000   35.160870219  139.613830491    83.1473   6   7   1.9318   1.3951   3.9608   0.5523  -1.5136  -1.0892   0.00    0.0
1316 519150.000   35.160870234  139.613830604    83.1511   6   7   1.8957   1.3663   3.8763   0.5417  -1.4780  -1.0719   0.00    0.0
1316 519180.000   35.160870460  139.613830485    83.1667   6   7   1.8618   1.3391   3.7963   0.5317  -1.4442  -1.0557   0.00    0.0
1316 519210.000   35.160870641  139.613830523    83.1539   6   7   1.8297   1.3133   3.7205   0.5222  -1.4121  -1.0405   0.00    0.0
1316 519240.000   35.160870653  139.613830602    83.1326   6   7   1.7992   1.2889   3.6484   0.5133  -1.3816  -1.0262   0.00    0.0
1316 519270.000   35.160870757  139.613830635    83.1287   6   7   1.7703   1.2656   3.5797   0.5048  -1.3524  -1.0127   0.00    0.0
1316 519300.000   35.160870921  139.613830562    83.1515   6   7   1.7429   1.2435   3.5142   0.4967  -1.3246  -1.0000   0.00    0.0
1316 519330.000   35.160871027  139.613830589    83.1609   6   7   1.7167   1.2225   3.4517   0.4890  -1.2980  -0.9879   0.00    0.0
1316 519360.000   35.160871115  139.613830559    83.1655   6   7   1.6918   1.2024   3.3918   0.4816  -1.2725  -0.9765   0.00    0.0
1316 519390.000   35.160871206  139.613830580    83.1867   6   7   1.6680   1.1831   3.3344   0.4746  -1.2480  -0.9657   0.00    0.0
1316 519420.000   35.160871337  139.613830514    83.2148   6   7   1.6452   1.1647   3.2794   0.4679  -1.2245  -0.9555   0.00    0.0
1316 519450.000   35.160871454  139.613830560    83.2174   6   7   1.6234   1.1470   3.2265   0.4615  -1.2018  -0.9457   0.00    0.0
1316 519480.000   35.160871485  139.613830501    83.1993   6   6   1.6067   1.1308   3.1843   0.4601  -1.1764  -0.9219   0.00    0.0
1316 519510.000   35.160871448  139.613830494    83.1819   6   6   1.5906   1.1152   3.1436   0.4588  -1.1519  -0.8990   0.00    0.0
1316 519540.000   35.160871502  139.613830399    83.1607   6   6   1.5752   1.1001   3.1044   0.4575  -1.1281  -0.8770   0.00    0.0
1316 519570.000   35.160871500  139.613830364    83.1402   6   6   1.5604   1.0857   3.0665   0.4562  -1.1051  -0.8557   0.00    0.0
1316 519600.000   35.160871475  139.613830294    83.1345   6   6   1.5461   1.0718   3.0299   0.4550  -1.0828  -0.8351   0.00    0.0
1316 519630.000   35.160871438  139.613830221    83.1264   6   6   1.5324   1.0584   2.9946   0.4538  -1.0612  -0.8153   0.00    0.0
1316 519659.999   35.160871417  139.613830113    83.1254   6   6   1.5191   1.0454   2.9604   0.4526  -1.0402  -0.7960   0.00    0.0
1316 519690.000   35.160871337  139.613830085    83.1135   6   6   1.5063   1.0329   2.9272   0.4515  -1.0199  -0.7775   0.00    0.0
1316 519720.000   35.160871314  139.613830058    83.1011   6   6   1.4939   1.0209   2.8951   0.4504  -1.0000  -0.7595   0.00    0.0
1316 519750.000   35.160871294  139.613829974    83.0878   6   6   1.4819   1.0092   2.8639   0.4493  -0.9807  -0.7420   0.00    0.0
1316 519780.000   35.160871328  139.613829980    83.0518   6   6   1.4703   0.9979   2.8337   0.4482  -0.9619  -0.7251   0.00    0.0
1316 519810.000   35.160871347  139.613829953    83.0365   6   6   1.4591   0.9870   2.8043   0.4472  -0.9436  -0.7087   0.00    0.0
1316 519840.000   35.160871325  139.613829872    83.0239   6   6   1.4482   0.9764   2.7757   0.4462  -0.9257  -0.6928   0.00    0.0
1316 519870.000   35.160871324  139.613829866    83.0040   6   6   1.4376   0.9662   2.7479   0.4452  -0.9082  -0.6773   0.00    0.0
1316 519900.000   35.160871380  139.613829793    82.9747   6   6   1.4274   0.9562   2.7208   0.4443  -0.8912  -0.6623   0.00    0.0
1316 519930.000   35.160871385  139.613829733    82.9600   6   6   1.4174   0.9466   2.6945   0.4433  -0.8745  -0.6477   0.00    0.0
1316 519960.000   35.160871410  139.613829702    82.9314   6   6   1.4078   0.9372   2.6688   0.4424  -0.8582  -0.6335   0.00    0.0
1316 519990.000   35.160871408  139.613829668    82.9152   6   6   1.3984   0.9282   2.6438   0.4416  -0.8422  -0.6196   0.00    0.0
1316 520020.000   35.160871453  139.613829643    82.8874   6   6   1.3892   0.9193   2.6193   0.4407  -0.8266  -0.6062   0.00    0.0
1316 520050.000   35.160871478  139.613829622    82.8657   6   6   1.3803   0.9108   2.5955   0.4399  -0.8112  -0.5931   0.00    0.0
1316 520080.000   35.160871479  139.613829623    82.8493   6   6   1.3716   0.9024   2.5722   0.4390  -0.7962  -0.5804   0.00    0.0
1316 520110.000   35.160871498  139.613829543    82.8359   6   6   1.3632   0.8943   2.5495   0.4382  -0.7815  -0.5680   0.00    0.0
1316 520140.000   35.160871515  139.613829503    82.8205   6   6   1.3549   0.8864   2.5272   0.4375  -0.7670  -0.5559   0.00    0.0
1316 520170.000   35.160871566  139.613829500    82.7804   6   6   1.3469   0.8788   2.5055   0.4367  -0.7528  -0.5441   0.00    0.0
1316 520200.000   35.160871593  139.613829450    82.7627   6   6   1.3390   0.8713   2.4842   0.4359  -0.7388  -0.5327   0.00    0.0
1316 520230.000   35.160871597  139.613829451    82.7490   6   6   1.3313   0.8640   2.4634   0.4352  -0.7250  -0.5215   0.00    0.0
1316 520260.000   35.160871619  139.613829413    82.7331   6   6   1.3238   0.8569   2.4431   0.4345  -0.7115  -0.5106   0.00    0.0
1316 520290.000   35.160871624  139.613829398    82.7163   6   6   1.3165   0.8500   2.4231   0.4338  -0.6982  -0.5001   0.00    0.0
1316 520320.000   35.160871630  139.613829358    82.7059   6   6   1.3093   0.8433   2.4036   0.4331  -0.6851  -0.4897   0.00    0.0
1316 520350.000   35.160871628  139.613829294    82.6938   6   6   1.3023   0.8367   2.3844   0.4324  -0.6722  -0.4797   0.00    0.0
1316 520380.000   35.160871642  139.613829270    82.6782   6   6   1.2954   0.8303   2.3656   0.4318  -0.6595  -0.4699   0.00    0.0
1316 520410.000   35.160871670  139.613829239    82.6583   6   6   1.2887   0.8240   2.3472   0.4311  -0.6470  -0.4604   0.00    0.0
1316 520440.000   35.160871681  139.613829211    82.6517   6   6   1.2821   0.8179   2.3291   0.4305  -0.6346  -0.4511   0.00    0.0
1316 520470.000   35.160871723  139.613829171    82.6339   6   6   1.2756   0.8120   2.3114   0.4298  -0.6224  -0.4421   0.00    0.0
1316 520500.000   35.160871745  139.613829114    82.6291   6   6   1.2693   0.8062   2.2940   0.4292  -0.6104  -0.4333   0.00    0.0
1316 520530.000   35.160871768  139.613829063    82.6194   6   6   1.2631   0.8005   2.2769   0.4286  -0.5985  -0.4248   0.00    0.0
1316 520560.000   35.160871783  139.613829072    82.6044   6   6   1.2570   0.7949   2.2601   0.4280  -0.5867  -0.4165   0.00    0.0
1316 520590.000   35.160871832  139.613829031    82.5872   6   6   1.2510   0.7895   2.2436   0.4273  -0.5751  -0.4084   0.00    0.0
1316 520620.000   35.160871845  139.613829001    82.5729   6   6   1.2451   0.7842   2.2274   0.4267  -0.5636  -0.4006   0.00    0.0
1316 520650.000   35.160871870  139.613828980    82.5653   6   6   1.2393   0.7790   2.2114   0.4261  -0.5522  -0.3930   0.00    0.0
1316 520680.000   35.160871882  139.613828923    82.5581   6   6   1.2336   0.7739   2.1957   0.4255  -0.5409  -0.3857   0.00    0.0
1316 520710.000   35.160871902  139.613828900    82.5493   6   6   1.2280   0.7690   2.1803   0.4249  -0.5298  -0.3785   0.00    0.0
1316 520740.000   35.160871927  139.613828865    82.5350   6   6   1.2225   0.7641   2.1652   0.4243  -0.5187  -0.3716   0.00    0.0
1316 520770.000   35.160871948  139.613828834    82.5272   6   6   1.2171   0.7594   2.1502   0.4238  -0.5078  -0.3649   0.00    0.0
1316 520800.000   35.160871986  139.613828793    82.5189   6   6   1.2117   0.7547   2.1355   0.4232  -0.4969  -0.3585   0.00    0.0
1316 520830.000   35.160872034  139.613828746    82.5118   6   6   1.2064   0.7502   2.1211   0.4226  -0.4861  -0.3522   0.00    0.0
1316 520860.000   35.160872059  139.613828712    82.5009   6   6   1.2013   0.7457   2.1068   0.4220  -0.4754  -0.3462   0.00    0.0
1316 520890.000   35.160872074  139.613828651    82.4914   6   6   1.1961   0.7414   2.0928   0.4214  -0.4648  -0.3404   0.00    0.0
1316 520920.000   35.160872091  139.613828594    82.4869   6   6   1.1911   0.7371   2.0790   0.4208  -0.4542  -0.3348   0.00    0.0
1316 520950.000   35.160872122  139.613828548    82.4754   6   6   1.1861   0.7329   2.0654   0.4202  -0.4437  -0.3295   0.00    0.0
1316 520980.000   35.160872143  139.613828501    82.4669   6   6   1.1812   0.7288   2.0520   0.4196  -0.4333  -0.3244   0.00    0.0
1316 521010.000   35.160872173  139.613828500    82.4524   6   6   1.1764   0.7248   2.0387   0.4190  -0.4229  -0.3195   0.00    0.0
1316 521040.000   35.160872171  139.613828493    82.4437   6   6   1.1716   0.7209   2.0257   0.4184  -0.4125  -0.3148   0.00    0.0
1316 521070.000   35.160872186  139.613828449    82.4398   6   6   1.1669   0.7170   2.0129   0.4177  -0.4022  -0.3103   0.00    0.0
1316 521100.000   35.160872202  139.613828448    82.4287   6   6   1.1622   0.7132   2.0002   0.4171  -0.3919  -0.3060   0.00    0.0
1316 521130.000   35.160872259  139.613828398    82.4222   6   6   1.1576   0.7095   1.9877   0.4165  -0.3816  -0.3020   0.00    0.0
1316 521160.000   35.160872303  139.613828362    82.4173   6   6   1.1530   0.7059   1.9754   0.4159  -0.3713  -0.2982   0.00    0.0
1316 521190.000   35.160872351  139.613828313    82.4110   6   6   1.1485   0.7023   1.9632   0.4152  -0.3611  -0.2946   0.00    0.0
1316 521220.000   35.160872387  139.613828288    82.3992   6   6   1.1440   0.6988   1.9512   0.4146  -0.3508  -0.2912   0.00    0.0
1316 521250.000   35.160872409  139.613828223    82.4002   6   6   1.1396   0.6953   1.9394   0.4139  -0.3405  -0.2880   0.00    0.0
1316 521280.000   35.160872447  139.613828193    82.3914   6   6   1.1352   0.6920   1.9277   0.4132  -0.3302  -0.2851   0.00    0.0
1316 521310.000   35.160872508  139.613828137    82.3925   6   6   1.1309   0.6887   1.9161   0.4126  -0.3199  -0.2823   0.00    0.0
1316 521340.000   35.160872559  139.613828072    82.3912   6   6   1.1266   0.6854   1.9047   0.4119  -0.3095  -0.2798   0.00    0.0
1316 521370.000   35.160872606  139.613828015    82.3934   6   6   1.1223   0.6822   1.8935   0.4112  -0.2990  -0.2774   0.00    0.0
1316 521400.000   35.160872639  139.613827951    82.3938   6   6   1.1181   0.6791   1.8824   0.4105  -0.2885  -0.2753   0.00    0.0
1316 521430.000   35.160872666  139.613827889    82.3968   6   6   1.1139   0.6760   1.8714   0.4098  -0.2778  -0.2734   0.00    0.0
1316 521460.000   35.160872700  139.613827815    82.3989   6   6   1.1098   0.6729   1.8605   0.4090  -0.2671  -0.2717   0.00    0.0
1316 521490.000   35.160872763  139.613827757    82.3987   6   6   1.1057   0.6700   1.8498   0.4083  -0.2562  -0.2701   0.00    0.0
1316 521520.000   35.160872822  139.613827680    82.3999   6   6   1.1016   0.6670   1.8392   0.4076  -0.2451  -0.2688   0.00    0.0
1316 521550.000   35.160872883  139.613827646    82.3966   6   6   1.0975   0.6642   1.8288   0.4068  -0.2338  -0.2676   0.00    0.0
1316 521580.000   35.160872939  139.613827579    82.3956   6   6   1.0935   0.6613   1.8185   0.4060  -0.2223  -0.2667   0.00    0.0
1316 521610.000   35.160872996  139.613827533    82.3922   6   6   1.0895   0.6585   1.8082   0.4052  -0.2105  -0.2659   0.00    0.0
1316 521640.000   35.160873047  139.613827468    82.3967   6   6   1.0856   0.6558   1.7981   0.4044  -0.1984  -0.2653   0.00    0.0
1316 521670.000   35.160873105  139.613827389    82.4006   6   6   1.0817   0.6531   1.7882   0.4036  -0.1858  -0.2648   0.00    0.0
1316 521700.000   35.160873152  139.613827329    82.4078   6   6   1.0778   0.6505   1.7783   0.4028  -0.1727  -0.2645   0.00    0.0
1316 521730.000   35.160873202  139.613827253    82.4132   6   6   1.0739   0.6479   1.7685   0.4020  -0.1588  -0.2644   0.00    0.0
1316 521760.000   35.160873251  139.613827194    82.4131   6   6   1.0700   0.6453   1.7589   0.4011  -0.1441  -0.2645   0.00    0.0
1316 521790.000   35.160873279  139.613827115    82.4194   6   6   1.0662   0.6428   1.7494   0.4003  -0.1282  -0.2646   0.00    0.0
1316 521820.000   35.160873299  139.613827139    82.4026   6   5   1.0630   0.6412   1.7460   0.3985  -0.1281  -0.2559   0.00    0.0
