% program   : rnx2rtkp ver.2.4.2
% inp file  : test\data\rinex\07590920.05o
% inp file  : test\data\rinex\30400920.05o
% inp file  : test\data\rinex\07590920.05n
% obs start : 2005/04/02 00:00:00.0 GPST (week1316 518400.0s)
% obs end   : 2005/04/02 00:59:30.0 GPST (week1316 521970.0s)
% ref pos   : 35.132063648  139.624300357    75.4015
%
% (lat/lon/height=WGS84/ellipsoidal,Q=1:fix,2:float,3:sbas,4:dgps,5:single,6:ppp,ns=# of satellites)
%  GPST          latitude(deg) longitude(deg)  height(m)   Q  ns   sdn(m)   sde(m)   sdu(m)  sdne(m)  sdeu(m)  sdun(m) age(s)  ratio
1316 518400.000   35.160872529  139.613836777    69.8714   1   7   0.0058   0.0044   0.0136   0.0022  -0.0047  -0.0055   0.00   24.9
1316 518430.000   35.160872522  139.613836807    69.8647   1   7   0.0059   0.0042   0.0136   0.0022  -0.0046  -0.0055   0.00   40.8
1316 518460.000   35.160872509  139.613836802    69.8661   1   7   0.0059   0.0042   0.0135   0.0025  -0.0044  -0.0056   0.00   40.2
1316 518490.000   35.160872499  139.613836783    69.8770   1   7   0.0058   0.0046   0.0136   0.0021  -0.0045  -0.0054   0.00   52.2
1316 518520.000   35.160872544  139.613836835    69.8741   1   7   0.0057   0.0047   0.0136   0.0023  -0.0046  -0.0053   0.00   63.1
1316 518550.000   35.160872535  139.613836819    69.8717   1   7   0.0057   0.0047   0.0135   0.0023  -0.0045  -0.0053   0.00   66.3
1316 518580.000   35.160872513  139.613836799    69.8846   1   7   0.0059   0.0043   0.0135   0.0024  -0.0045  -0.0052   0.00   75.7
1316 518610.000   35.160872496  139.613836778    69.8890   1   7   0.0057   0.0045   0.0135   0.0024  -0.0044  -0.0052   0.00   69.2
1316 518640.000   35.160872530  139.613836770    69.8871   1   7   0.0056   0.0042   0.0135   0.0015  -0.0046  -0.0053   0.00   67.4
1316 518670.000   35.160872542  139.613836849    69.8710   1   7   0.0059   0.0043   0.0134   0.0022  -0.0044  -0.0051   0.00   64.3
1316 518700.000   35.160872574  139.613836802    69.8767   1   7   0.0058   0.0045   0.0134   0.0023  -0.0044  -0.0051   0.00   67.9
1316 518730.000   35.160872586  139.613836764    69.8828   1   7   0.0056   0.0044   0.0134   0.0022  -0.0045  -0.0052   0.00   84.0
1316 518760.000   35.160872593  139.613836778    69.8735   1   7   0.0058   0.0040   0.0133   0.0018  -0.0046  -0.0051   0.00   81.8
1316 518790.000   35.160872572  139.613836781    69.8748   1   7   0.0061   0.0045   0.0133   0.0027  -0.0043  -0.0049   0.00   85.3
1316 518820.000   35.160872539  139.613836748    69.8803   1   7   0.0058   0.0041   0.0133   0.0022  -0.0042  -0.0050   0.00   87.0
1316 518850.000   35.160872540  139.613836746    69.8822   1   7   0.0057   0.0042   0.0133   0.0021  -0.0042  -0.0049   0.00   88.0
1316 518880.000   35.160872549  139.613836775    69.8770   1   7   0.0056   0.0043   0.0133   0.0021  -0.0042  -0.0050   0.00   94.0
1316 518910.000   35.160872527  139.613836742    69.8756   1   7   0.0057   0.0040   0.0132   0.0016  -0.0044  -0.0050   0.00   99.9
1316 518940.000   35.160872506  139.613836781    69.8769   1   7   0.0058   0.0041   0.0132   0.0020  -0.0044  -0.0048   0.00  105.9
1316 518970.000   35.160872548  139.613836853    69.8516   1   7   0.0060   0.0041   0.0131   0.0023  -0.0043  -0.0047   0.00  108.4
1316 519000.000   35.160872541  139.613836813    69.8724   1   7   0.0057   0.0046   0.0131   0.0026  -0.0041  -0.0047   0.00  110.6
1316 519030.000   35.160872533  139.613836779    69.8708   1   7   0.0059   0.0044   0.0131   0.0020  -0.0042  -0.0046   0.00  122.9
1316 519060.000   35.160872548  139.613836806    69.8694   1   7   0.0059   0.0039   0.0131   0.0019  -0.0042  -0.0046   0.00  128.3
1316 519090.000   35.160872576  139.613836833    69.8649   1   7   0.0057   0.0042   0.0131   0.0021  -0.0042  -0.0046   0.00  132.3
1316 519120.000   35.160872552  139.613836811    69.8793   1   7   0.0059   0.0044   0.0131   0.0024  -0.0040  -0.0045   0.00  143.8
1316 519150.000   35.160872573  139.613836834    69.8689   1   7   0.0057   0.0040   0.0130   0.0023  -0.0040  -0.0044   0.00  158.3
1316 519180.000   35.160872577  139.613836810    69.8780   1   7   0.0058   0.0048   0.0131   0.0024  -0.0037  -0.0045   0.00  163.0
1316 519210.000   35.160872575  139.613836771    69.8750   1   7   0.0059   0.0041   0.0130   0.0021  -0.0041  -0.0043   0.00  173.5
1316 519240.000   35.160872554  139.613836768    69.8863   1   7   0.0056   0.0042   0.0130   0.0020  -0.0042  -0.0045   0.00  185.4
1316 519270.000   35.160872576  139.613836803    69.8761   1   7   0.0059   0.0042   0.0130   0.0019  -0.0039  -0.0042   0.00  185.7
1316 519300.000   35.160872535  139.613836818    69.8798   1   7   0.0059   0.0043   0.0130   0.0024  -0.0039  -0.0041   0.00  175.2
1316 519330.000   35.160872542  139.613836798    69.8770   1   7   0.0059   0.0045   0.0129   0.0021  -0.0039  -0.0042   0.00  165.3
1316 519360.000   35.160872544  139.613836824    69.8721   1   7   0.0059   0.0039   0.0129   0.0025  -0.0039  -0.0041   0.00  156.5
1316 519390.000   35.160872538  139.613836813    69.8783   1   7   0.0058   0.0036   0.0129   0.0020  -0.0040  -0.0040   0.00  147.0
1316 519420.000   35.160872545  139.613836808    69.8804   1   7   0.0060   0.0041   0.0129   0.0021  -0.0039  -0.0039   0.00  146.9
1316 519450.000   35.160872511  139.613836811    69.8797   1   7   0.0059   0.0039   0.0129   0.0017  -0.0039  -0.0039   0.00  142.6
1316 519480.000   35.160872543  139.613836832    69.8805   1   6   0.0059   0.0045   0.0141   0.0021  -0.0028  -0.0026   0.00   77.8
1316 519510.000   35.160872537  139.613836829    69.8704   1   6   0.0060   0.0044   0.0142   0.0017  -0.0027  -0.0022   0.00   77.7
1316 519540.000   35.160872519  139.613836842    69.8835   1   6   0.0061   0.0043   0.0142   0.0024  -0.0028  -0.0018   0.00   77.5
1316 519570.000   35.160872504  139.613836822    69.8764   1   6   0.0061   0.0040   0.0142   0.0022  -0.0025  -0.0020   0.00   77.7
1316 519600.000   35.160872510  139.613836809    69.8822   1   6   0.0064   0.0044   0.0141   0.0023  -0.0027  -0.0017   0.00   76.6
1316 519630.000   35.160872522  139.613836804    69.8738   1   6   0.0061   0.0045   0.0141   0.0019  -0.0028  -0.0013   0.00   76.3
1316 519659.999   35.160872553  139.613836832    69.8744   1   6   0.0064   0.0044   0.0141   0.0025  -0.0026  -0.0012   0.00   76.2
1316 519690.000   35.160872562  139.613836789    69.8747   1   6   0.0065   0.0045   0.0141   0.0024  -0.0025  -0.0011   0.00   77.1
1316 519720.000   35.160872532  139.613836779    69.8865   1   6   0.0062   0.0048   0.0142   0.0023  -0.0023   0.0008   0.00   82.6
1316 519750.000   35.160872518  139.613836771    69.8761   1   6   0.0062   0.0043   0.0141   0.0024  -0.0028   0.0011   0.00   84.9
1316 519780.000   35.160872530  139.613836793    69.8768   1   6   0.0062   0.0042   0.0140   0.0026  -0.0026   0.0008   0.00   91.0
1316 519810.000   35.160872524  139.613836784    69.8812   1   6   0.0064   0.0043   0.0141   0.0027  -0.0024   0.0015   0.00   93.5
1316 519840.000   35.160872560  139.613836844    69.8658   1   6   0.0064   0.0045   0.0141   0.0023  -0.0025   0.0019   0.00   96.3
1316 519870.000   35.160872551  139.613836836    69.8780   1   6   0.0063   0.0043   0.0141   0.0024  -0.0024   0.0021   0.00  100.8
1316 519900.000   35.160872528  139.613836804    69.8805   1   6   0.0064   0.0046   0.0141   0.0026  -0.0023   0.0022   0.00  104.6
1316 519930.000   35.160872522  139.613836810    69.8815   1   6   0.0065   0.0046   0.0142   0.0028  -0.0022   0.0023   0.00  107.2
1316 519960.000   35.160872530  139.613836836    69.8752   1   6   0.0062   0.0044   0.0142   0.0018  -0.0021   0.0027   0.00  110.9
1316 519990.000   35.160872518  139.613836869    69.8780   1   6   0.0065   0.0045   0.0142   0.0022  -0.0021   0.0027   0.00  118.1
1316 520020.000   35.160872527  139.613836834    69.8805   1   6   0.0065   0.0044   0.0142   0.0024  -0.0020   0.0028   0.00  123.8
1316 520050.000   35.160872513  139.613836826    69.8877   1   6   0.0065   0.0041   0.0142   0.0023  -0.0022   0.0029   0.00  128.4
1316 520080.000   35.160872530  139.613836808    69.8795   1   6   0.0066   0.0032   0.0143   0.0022  -0.0019   0.0029   0.00  134.8
1316 520110.000   35.160872516  139.613836787    69.8791   1   6   0.0066   0.0040   0.0142   0.0025  -0.0021   0.0033   0.00  140.8
1316 520140.000   35.160872523  139.613836802    69.8740   1   6   0.0065   0.0039   0.0142   0.0029  -0.0020   0.0034   0.00  149.0
1316 520170.000   35.160872509  139.613836802    69.8781   1   6   0.0066   0.0039   0.0142   0.0025  -0.0023   0.0037   0.00  150.7
1316 520200.000   35.160872544  139.613836835    69.8788   1   6   0.0070   0.0035   0.0142   0.0030  -0.0023   0.0036   0.00  148.0
1316 520230.000   35.160872510  139.613836820    69.8719   1   6   0.0066   0.0043   0.0143   0.0027  -0.0019   0.0039   0.00  146.3
1316 520260.000   35.160872501  139.613836841    69.8804   1   6   0.0068   0.0042   0.0143   0.0023  -0.0016   0.0038   0.00  146.3
1316 520290.000   35.160872509  139.613836809    69.8725   1   6   0.0068   0.0044   0.0143   0.0023  -0.0018   0.0040   0.00  147.3
1316 520320.000   35.160872567  139.613836866    69.8614   1   6   0.0067   0.0040   0.0143   0.0027  -0.0016   0.0041   0.00  149.2
1316 520350.000   35.160872541  139.613836819    69.8751   1   6   0.0068   0.0045   0.0144   0.0023  -0.0014   0.0043   0.00  150.3
1316 520380.000   35.160872499  139.613836816    69.8803   1   6   0.0068   0.0043   0.0144   0.0027  -0.0014   0.0044   0.00  156.7
1316 520410.000   35.160872562  139.613836848    69.8812   1   6   0.0070   0.0044   0.0144   0.0022  -0.0015   0.0045   0.00  166.2
1316 520440.000   35.160872572  139.613836787    69.8873   1   6   0.0066   0.0045   0.0144   0.0023  -0.0013   0.0047   0.00  179.4
1316 520470.000   35.160872576  139.613836811    69.8748   1   6   0.0072   0.0043   0.0145   0.0020  -0.0008   0.0046   0.00  190.4
1316 520500.000   35.160872571  139.613836823    69.8818   1   6   0.0071   0.0042   0.0145   0.0024  -0.0010   0.0047   0.00  193.5
1316 520530.000   35.160872539  139.613836811    69.8637   1   6   0.0072   0.0044   0.0145   0.0022  -0.0011   0.0049   0.00  196.3
1316 520560.000   35.160872579  139.613836857    69.8827   1   6   0.0071   0.0042   0.0146   0.0027  -0.0007   0.0051   0.00  199.5
1316 520590.000   35.160872546  139.613836839    69.8671   1   6   0.0070   0.0040   0.0146   0.0028  -0.0012   0.0052   0.01  200.6
1316 520620.000   35.160872546  139.613836808    69.8781   1   6   0.0074   0.0042   0.0146   0.0024  -0.0015   0.0053   0.01  200.4
1316 520650.000   35.160872515  139.613836805    69.8724   1   6   0.0071   0.0041   0.0147   0.0026  -0.0006   0.0053   0.01  202.0
1316 520680.000   35.160872513  139.613836822    69.8725   1   6   0.0074   0.0044   0.0148   0.0023   0.0015   0.0052   0.01  202.4
1316 520710.000   35.160872507  139.613836838    69.8742   1   6   0.0073   0.0045   0.0148   0.0023   0.0009   0.0055   0.01  205.2
1316 520740.000   35.160872494  139.613836788    69.8729   1   6   0.0073   0.0045   0.0148   0.0023   0.0009   0.0056   0.01  202.1
1316 520770.000   35.160872483  139.613836790    69.8724   1   6   0.0074   0.0042   0.0148   0.0026   0.0013   0.0057   0.01  202.6
1316 520800.000   35.160872546  139.613836791    69.8729   1   6   0.0074   0.0042   0.0149   0.0026   0.0012   0.0058   0.01  198.0
1316 520830.000   35.160872555  139.613836835    69.8787   1   6   0.0077   0.0040   0.0149   0.0026   0.0008   0.0059   0.01  198.4
1316 520860.000   35.160872501  139.613836823    69.8672   1   6   0.0077   0.0038   0.0150   0.0030   0.0008   0.0060   0.01  200.4
1316 520890.000   35.160872521  139.613836806    69.8690   1   6   0.0078   0.0040   0.0150   0.0026   0.0014   0.0060   0.01  201.4
1316 520920.000   35.160872474  139.613836792    69.8792   1   6   0.0079   0.0042   0.0151   0.0021   0.0021   0.0060   0.01  204.0
1316 520950.000   35.160872463  139.613836812    69.8730   1   6   0.0077   0.0038   0.0151   0.0030   0.0013   0.0064   0.01  203.9
1316 520980.000   35.160872458  139.613836781    69.8708   1   6   0.0078   0.0040   0.0151   0.0029   0.0012   0.0065   0.01  202.8
1316 521010.000   35.160872428  139.613836762    69.8684   1   6   0.0079   0.0037   0.0152   0.0031   0.0010   0.0065   0.01  205.4
1316 521040.000   35.160872475  139.613836805    69.8713   1   6   0.0078   0.0043   0.0153   0.0027   0.0015   0.0066   0.01  207.0
1316 521070.000   35.160872519  139.613836775    69.8823   1   6   0.0079   0.0039   0.0153   0.0027   0.0013   0.0067   0.01  210.3
1316 521100.000   35.160872525  139.613836822    69.8747   1   6   0.0079   0.0041   0.0154   0.0025   0.0019   0.0067   0.01  215.2
1316 521130.000   35.160872529  139.613836792    69.8638   1   6   0.0079   0.0045   0.0154   0.0028   0.0013   0.0070   0.01  213.4
1316 521160.000   35.160872554  139.613836788    69.8668   1   6   0.0082   0.0041   0.0155   0.0025   0.0019   0.0070   0.01  211.2
1316 521190.000   35.160872563  139.613836807    69.8614   1   6   0.0081   0.0039   0.0156   0.0028   0.0018   0.0071   0.01  209.1
1316 521220.000   35.160872552  139.613836752    69.8596   1   6   0.0081   0.0043   0.0156   0.0027   0.0019   0.0072   0.01  206.9
1316 521250.000   35.160872544  139.613836747    69.8717   1   6   0.0082   0.0044   0.0157   0.0027   0.0020   0.0073   0.01  209.9
1316 521280.000   35.160872524  139.613836727    69.8745   1   6   0.0080   0.0044   0.0158   0.0026   0.0023   0.0074   0.01  213.3
1316 521310.000   35.160872494  139.613836737    69.8625   1   6   0.0085   0.0042   0.0159   0.0021   0.0025   0.0074   0.01  213.9
1316 521340.000   35.160872567  139.613836788    69.8756   1   6   0.0083   0.0041   0.0159   0.0024   0.0022   0.0076   0.01  214.7
1316 521370.000   35.160872517  139.613836747    69.8683   1   6   0.0083   0.0042   0.0160   0.0026   0.0022   0.0077   0.01  215.5
1316 521400.000   35.160872532  139.613836762    69.8685   1   6   0.0086   0.0046   0.0161   0.0023   0.0023   0.0077   0.01  217.4
1316 521430.000   35.160872507  139.613836755    69.8654   1   6   0.0086   0.0042   0.0161   0.0023   0.0020   0.0078   0.01  219.3
1316 521460.000   35.160872523  139.613836766    69.8741   1   6   0.0086   0.0041   0.0162   0.0030   0.0020   0.0080   0.01  223.8
1316 521490.000   35.160872447  139.613836788    69.8681   1   6   0.0087   0.0042   0.0164   0.0022   0.0028   0.0080   0.01  229.3
1316 521520.000   35.160872459  139.613836818    69.8669   1   6   0.0089   0.0045   0.0164   0.0022   0.0026   0.0081   0.01  228.3
1316 521550.000   35.160872417  139.613836794    69.8565   1   6   0.0087   0.0045   0.0165   0.0024   0.0025   0.0082   0.01  227.4
1316 521580.000   35.160872467  139.613836818    69.8630   1   6   0.0087   0.0042   0.0166   0.0023   0.0026   0.0083   0.01  226.9
1316 521610.000   35.160872500  139.613836796    69.8662   1   6   0.0086   0.0045   0.0166   0.0024   0.0026   0.0085   0.01  231.3
1316 521640.000   35.160872531  139.613836798    69.8770   1   6   0.0089   0.0040   0.0167   0.0025   0.0027   0.0085   0.01  234.6
1316 521670.000   35.160872531  139.613836796    69.8763   1   6   0.0090   0.0046   0.0168   0.0018   0.0030   0.0085   0.01  230.5
1316 521700.000   35.160872553  139.613836805    69.8713   1   6   0.0090   0.0042   0.0169   0.0024   0.0029   0.0087   0.01  234.4
1316 521730.000   35.160872591  139.613836820    69.8857   1   6   0.0092   0.0043   0.0170   0.0026   0.0028   0.0087   0.01  241.1
1316 521760.000   35.160872508  139.613836795    69.8872   1   6   0.0093   0.0046   0.0171   0.0023   0.0029   0.0087   0.01  245.4
1316 521790.000   35.160872541  139.613836764    69.8701   1   6   0.0091   0.0044   0.0171   0.0026   0.0025   0.0090   0.01  248.6
1316 521820.000   35.160872789  139.613836710    69.9581   1   5   0.0404   0.0082   0.1049  -0.0166  -0.0272   0.0644   0.01  347.1
