% program   : rnx2rtkp ver.2.4.2
% inp file  : test/data/rinex/07590920.05o
% inp file  : test/data/rinex/07590920.05n
% obs start : 2005/04/02 00:00:00.0 GPST (week1316 518400.0s)
% obs end   : 2005/04/02 00:59:30.0 GPST (week1316 521970.0s)
%
% (lat/lon/height=WGS84/ellipsoidal,Q=1:fix,2:float,3:sbas,4:dgps,5:single,6:ppp,ns=# of satellites)
%  GPST          latitude(deg) longitude(deg)  height(m)   Q  ns   sdn(m)   sde(m)   sdu(m)  sdne(m)  sdeu(m)  sdun(m) age(s)  ratio
1316 518400.000   35.160868976  139.613827672    82.8571   6   7   9.3763   7.1147  20.0773   2.7040  -8.0547  -4.9324   0.00    0.0
1316 518430.000   35.160869115  139.613829655    82.5151   6   7   8.1652   6.1742  17.4814   2.3562  -6.9918  -4.3237   0.00    0.0
1316 518460.000   35.160868925  139.613830584    82.3287   6   7   7.7199   5.8146  16.4913   2.2257  -6.5724  -4.1074   0.00    0.0
1316 518490.000   35.160867482  139.613830066    82.7519   6   7   7.4913   5.6195  15.9537   2.1567  -6.3343  -4.0025   0.00    0.0
1316 518520.000   35.160866834  139.613830651    82.1501   6   7   7.3547   5.4941  15.6071   2.1139  -6.1726  -3.9450   0.00    0.0
1316 518550.000   35.160868408  139.613828837    82.7836   6   7   7.2658   5.4050  15.3589   2.0846  -6.0503  -3.9126   0.00    0.0
1316 518580.000   35.160869186  139.613830963    82.6807   6   7   7.2047   5.3370  15.1678   2.0634  -5.9509  -3.8950   0.00    0.0
1316 518610.000   35.160869352  139.613832569    82.4221   6   7   7.1613   5.2826  15.0129   2.0473  -5.8660  -3.8870   0.00    0.0
1316 518640.000   35.160868582  139.613831087    82.8997   6   7   7.1300   5.2374  14.8820   2.0346  -5.7907  -3.8859   0.00    0.0
1316 518670.000   35.160870892  139.613830672    82.5845   6   7   7.1071   5.1987  14.7681   2.0245  -5.7223  -3.8897   0.00    0.0
1316 518700.000   35.160872793  139.613832052    82.5400   6   7   7.0904   5.1648  14.6664   2.0162  -5.6587  -3.8973   0.00    0.0
1316 518730.000   35.160870145  139.613831099    82.2983   6   7   7.0784   5.1347  14.5738   2.0093  -5.5989  -3.9079   0.00    0.0
1316 518760.000   35.160871845  139.613830773    82.2413   6   7   7.0700   5.1074  14.4881   2.0036  -5.5418  -3.9209   0.00    0.0
1316 518790.000   35.160869816  139.613832008    82.6529   6   7   7.0645   5.0824  14.4078   1.9987  -5.4869  -3.9360   0.00    0.0
1316 518820.000   35.160870764  139.613832894    82.4788   6   7   7.0613   5.0593  14.3318   1.9945  -5.4338  -3.9527   0.00    0.0
1316 518850.000   35.160870527  139.613832763    82.6382   6   7   7.0601   5.0378  14.2592   1.9909  -5.3820  -3.9710   0.00    0.0
1316 518880.000   35.160873533  139.613831859    82.6564   6   7   7.0603   5.0176  14.1894   1.9878  -5.3314  -3.9905   0.00    0.0
1316 518910.000   35.160873429  139.613833091    82.3301   6   7   7.0619   4.9985  14.1219   1.9851  -5.2818  -4.0112   0.00    0.0
1316 518940.000   35.160872563  139.613833830    82.4522   6   7   7.0646   4.9805  14.0563   1.9827  -5.2329  -4.0329   0.00    0.0
1316 518970.000   35.160872611  139.613833314    82.2990   6   7   7.0683   4.9633  13.9923   1.9806  -5.1847  -4.0555   0.00    0.0
1316 519000.000   35.160873456  139.613833120    82.2762   6   7   7.0727   4.9469  13.9297   1.9787  -5.1371  -4.0789   0.00    0.0
1316 519030.000   35.160874518  139.613832627    82.2941   6   7   7.0779   4.9311  13.8683   1.9770  -5.0900  -4.1031   0.00    0.0
1316 519060.000   35.160873053  139.613833260    82.0993   6   7   7.0837   4.9160  13.8079   1.9754  -5.0433  -4.1279   0.00    0.0
1316 519090.000   35.160874765  139.613833431    81.8353   6   7   7.0900   4.9015  13.7485   1.9740  -4.9970  -4.1534   0.00    0.0
1316 519120.000   35.160873465  139.613832831    82.8189   6   7   7.0969   4.8875  13.6899   1.9726  -4.9511  -4.1794   0.00    0.0
1316 519150.000   35.160873053  139.613834219    82.3032   6   7   7.1041   4.8739  13.6320   1.9714  -4.9055  -4.2060   0.00    0.0
1316 519180.000   35.160876318  139.613831308    82.3881   6   7   7.1118   4.8609  13.5748   1.9701  -4.8601  -4.2330   0.00    0.0
1316 519210.000   35.160875998  139.613833229    82.0496   6   7   7.1198   4.8482  13.5183   1.9689  -4.8150  -4.2605   0.00    0.0
1316 519240.000   35.160873663  139.613833873    81.9526   6   7   7.1281   4.8360  13.4623   1.9678  -4.7702  -4.2884   0.00    0.0
1316 519270.000   35.160875341  139.613833459    82.1547   6   7   7.1367   4.8241  13.4070   1.9666  -4.7256  -4.3166   0.00    0.0
1316 519300.000   35.160876669  139.613832117    82.5277   6   7   7.1455   4.8126  13.3522   1.9653  -4.6812  -4.3452   0.00    0.0
1316 519330.000   35.160875894  139.613833483    82.3694   6   7   7.1546   4.8014  13.2979   1.9641  -4.6370  -4.3742   0.00    0.0
1316 519360.000   35.160875864  139.613832586    82.2882   6   7   7.1639   4.7906  13.2441   1.9628  -4.5930  -4.4034   0.00    0.0
1316 519390.000   35.160876177  139.613833585    82.5871   6   7   7.1735   4.7800  13.1909   1.9614  -4.5492  -4.4329   0.00    0.0
1316 519420.000   35.160877320  139.613832321    82.6948   6   7   7.1832   4.7698  13.1381   1.9600  -4.5056  -4.4627   0.00    0.0
1316 519450.000   35.160877453  139.613834286    82.3232   6   7   7.1931   4.7599  13.0859   1.9584  -4.4622  -4.4927   0.00    0.0
1316 519480.000   35.160876399  139.613832558    82.0213   6   6   8.8434   5.1664  15.6823   3.7750  -1.3462   4.9277   0.00    0.0
1316 519510.000   35.160875291  139.613833558    82.0701   6   6   8.8840   5.1673  15.6822   3.8056  -1.0322   4.9885   0.00    0.0
1316 519540.000   35.160876796  139.613831663    81.8077   6   6   8.9250   5.1689  15.6821   3.8365  -0.5647   5.0481   0.00    0.0
1316 519570.000   35.160875724  139.613832679    81.8528   6   6   8.9661   5.1711  15.6821   3.8679   0.6539   5.1066   0.00    0.0
1316 519600.000   35.160875846  139.613832235    82.2431   6   6   9.0075   5.1738  15.6821   3.8996   1.0835   5.1640   0.00    0.0
1316 519630.000   35.160874558  139.613831553    82.0135   6   6   9.0490   5.1771  15.6820   3.9316   1.3857   5.2203   0.00    0.0
1316 519659.999   35.160875317  139.613830989    82.1967   6   6   9.0907   5.1809  15.6819   3.9639   1.6328   5.2754   0.00    0.0
1316 519690.000   35.160873634  139.613832373    81.9754   6   6   9.1325   5.1854  15.6817   3.9966   1.8471   5.3293   0.00    0.0
1316 519720.000   35.160875535  139.613832665    82.0411   6   6   9.1744   5.1903  15.6814   4.0294   2.0388   5.3821   0.00    0.0
1316 519750.000   35.160874705  139.613830966    81.7808   6   6   9.2164   5.1958  15.6810   4.0626   2.2138   5.4338   0.00    0.0
1316 519780.000   35.160876182  139.613832671    81.2599   6   6   9.2584   5.2018  15.6805   4.0959   2.3758   5.4842   0.00    0.0
1316 519810.000   35.160877750  139.613833099    81.9911   6   6   9.3005   5.2084  15.6799   4.1295   2.5273   5.5335   0.00    0.0
1316 519840.000   35.160875395  139.613831175    81.7666   6   6   9.3425   5.2155  15.6791   4.1632   2.6700   5.5815   0.00    0.0
1316 519870.000   35.160876901  139.613833343    81.7804   6   6   9.3846   5.2230  15.6782   4.1970   2.8052   5.6283   0.00    0.0
1316 519900.000   35.160877743  139.613831022    81.2291   6   6   9.4265   5.2311  15.6771   4.2310   2.9339   5.6738   0.00    0.0
1316 519930.000   35.160877278  139.613831978    81.7538   6   6   9.4684   5.2397  15.6757   4.2650   3.0570   5.7181   0.00    0.0
1316 519960.000   35.160877714  139.613832385    81.3247   6   6   9.5101   5.2488  15.6742   4.2991   3.1750   5.7611   0.00    0.0
1316 519990.000   35.160877393  139.613832778    81.7088   6   6   9.5517   5.2583  15.6724   4.3332   3.2884   5.8027   0.00    0.0
1316 520020.000   35.160878713  139.613832699    81.3550   6   6   9.5931   5.2683  15.6703   4.3674   3.3977   5.8430   0.00    0.0
1316 520050.000   35.160878719  139.613833265    81.6123   6   6   9.6343   5.2787  15.6680   4.4015   3.5033   5.8818   0.00    0.0
1316 520080.000   35.160878756  139.613834337    81.8803   6   6   9.6752   5.2895  15.6654   4.4355   3.6054   5.9193   0.00    0.0
1316 520110.000   35.160879109  139.613831928    81.7552   6   6   9.7159   5.3008  15.6626   4.4695   3.7042   5.9553   0.00    0.0
1316 520140.000   35.160879749  139.613833448    81.8137   6   6   9.7562   5.3125  15.6594   4.5033   3.8001   5.9899   0.00    0.0
1316 520170.000   35.160879499  139.613833379    80.8462   6   6   9.7962   5.3246  15.6558   4.5370   3.8931   6.0229   0.00    0.0
1316 520200.000   35.160880003  139.613832924    81.6116   6   6   9.8358   5.3371  15.6520   4.5705   3.9835   6.0543   0.00    0.0
1316 520230.000   35.160880764  139.613835320    82.0289   6   6   9.8750   5.3500  15.6478   4.6038   4.0714   6.0842   0.00    0.0
1316 520260.000   35.160881201  139.613833904    81.7920   6   6   9.9138   5.3632  15.6432   4.6369   4.1568   6.1125   0.00    0.0
1316 520290.000   35.160880934  139.613834811    81.8387   6   6   9.9520   5.3767  15.6382   4.6696   4.2400   6.1391   0.00    0.0
1316 520320.000   35.160881580  139.613834400    82.0435   6   6   9.9897   5.3906  15.6328   4.7020   4.3211   6.1640   0.00    0.0
1316 520350.000   35.160880539  139.613832974    81.7892   6   6  10.0269   5.4048  15.6270   4.7341   4.4000   6.1872   0.00    0.0
1316 520380.000   35.160882124  139.613834715    81.8737   6   6  10.0635   5.4193  15.6208   4.7658   4.4769   6.2086   0.00    0.0
1316 520410.000   35.160882621  139.613834226    81.6351   6   6  10.0995   5.4340  15.6142   4.7971   4.5518   6.2282   0.00    0.0
1316 520440.000   35.160883270  139.613835354    82.2725   6   6  10.1348   5.4490  15.6071   4.8279   4.6249   6.2459   0.00    0.0
1316 520470.000   35.160883787  139.613834135    81.6685   6   6  10.1694   5.4643  15.5996   4.8583   4.6961   6.2618   0.00    0.0
1316 520500.000   35.160883813  139.613834266    82.2159   6   6  10.2033   5.4797  15.5916   4.8881   4.7656   6.2757   0.00    0.0
1316 520530.000   35.160884020  139.613834433    82.0537   6   6  10.2364   5.4954  15.5831   4.9173   4.8333   6.2877   0.00    0.0
1316 520560.000   35.160884421  139.613836828    82.0698   6   6  10.2687   5.5113  15.5742   4.9460   4.8993   6.2976   0.00    0.0
1316 520590.000   35.160885652  139.613834767    81.7686   6   6  10.3002   5.5273  15.5647   4.9740   4.9636   6.3055   0.00    0.0
1316 520620.000   35.160883815  139.613835035    81.8562   6   6  10.3309   5.5435  15.5548   5.0013   5.0263   6.3113   0.00    0.0
1316 520650.000   35.160885987  139.613836463    82.3474   6   6  10.3606   5.5597  15.5444   5.0280   5.0874   6.3149   0.00    0.0
1316 520680.000   35.160884498  139.613834629    82.1351   6   6  10.3895   5.5762  15.5335   5.0539   5.1470   6.3164   0.00    0.0
1316 520710.000   35.160885891  139.613836526    82.2660   6   6  10.4174   5.5926  15.5221   5.0791   5.2050   6.3157   0.00    0.0
1316 520740.000   35.160885363  139.613835434    81.8581   6   6  10.4443   5.6092  15.5102   5.1034   5.2615   6.3127   0.00    0.0
1316 520770.000   35.160886471  139.613836528    82.3015   6   6  10.4702   5.6258  15.4978   5.1269   5.3165   6.3074   0.00    0.0
1316 520800.000   35.160887693  139.613836334    82.2712   6   6  10.4951   5.6425  15.4849   5.1496   5.3701   6.2998   0.00    0.0
1316 520830.000   35.160888606  139.613836198    82.3270   6   6  10.5189   5.6592  15.4715   5.1713   5.4222   6.2898   0.00    0.0
1316 520860.000   35.160886675  139.613836005    82.0945   6   6  10.5416   5.6758  15.4576   5.1922   5.4729   6.2774   0.00    0.0
1316 520890.000   35.160885605  139.613834480    81.9854   6   6  10.5633   5.6925  15.4432   5.2120   5.5221   6.2625   0.00    0.0
1316 520920.000   35.160886213  139.613835102    82.2748   6   6  10.5838   5.7091  15.4284   5.2309   5.5701   6.2452   0.00    0.0
1316 520950.000   35.160887324  139.613835406    82.0125   6   6  10.6032   5.7256  15.4131   5.2488   5.6166   6.2253   0.00    0.0
1316 520980.000   35.160887159  139.613835549    82.1537   6   6  10.6215   5.7421  15.3974   5.2656   5.6618   6.2028   0.00    0.0
1316 521010.000   35.160888522  139.613837803    82.1181   6   6  10.6386   5.7585  15.3812   5.2813   5.7057   6.1778   0.00    0.0
1316 521040.000   35.160886867  139.613837864    82.4096   6   6  10.6545   5.7747  15.3646   5.2960   5.7484   6.1500   0.00    0.0
1316 521070.000   35.160888060  139.613836643    82.5357   6   6  10.6692   5.7909  15.3475   5.3095   5.7897   6.1197   0.00    0.0
1316 521100.000   35.160888485  139.613838334    82.3446   6   6  10.6827   5.8069  15.3301   5.3219   5.8298   6.0865   0.00    0.0
1316 521130.000   35.160891451  139.613836535    82.3831   6   6  10.6951   5.8228  15.3123   5.3331   5.8687   6.0507   0.00    0.0
1316 521160.000   35.160891527  139.613837618    82.6039   6   6  10.7062   5.8385  15.2942   5.3431   5.9064   6.0120   0.00    0.0
1316 521190.000   35.160891336  139.613836525    82.3868   6   6  10.7161   5.8540  15.2757   5.3519   5.9429   5.9705   0.00    0.0
1316 521220.000   35.160890311  139.613836980    82.1359   6   6  10.7248   5.8693  15.2569   5.3595   5.9782   5.9261   0.00    0.0
1316 521250.000   35.160889547  139.613835756    82.6406   6   6  10.7323   5.8845  15.2378   5.3659   6.0125   5.8787   0.00    0.0
1316 521280.000   35.160890604  139.613836953    82.2526   6   6  10.7386   5.8994  15.2185   5.3710   6.0456   5.8284   0.00    0.0
1316 521310.000   35.160893249  139.613837041    82.7982   6   6  10.7437   5.9141  15.1989   5.3748   6.0777   5.7751   0.00    0.0
1316 521340.000   35.160891941  139.613835774    82.5445   6   6  10.7476   5.9286  15.1791   5.3773   6.1087   5.7187   0.00    0.0
1316 521370.000   35.160891758  139.613836437    82.8004   6   6  10.7503   5.9429  15.1592   5.3786   6.1387   5.6592   0.00    0.0
1316 521400.000   35.160890494  139.613835577    82.6188   6   6  10.7519   5.9569  15.1391   5.3785   6.1677   5.5964   0.00    0.0
1316 521430.000   35.160890425  139.613836117    82.8488   6   6  10.7523   5.9707  15.1188   5.3771   6.1958   5.5305   0.00    0.0
1316 521460.000   35.160891021  139.613835459    82.7395   6   6  10.7516   5.9842  15.0985   5.3743   6.2229   5.4612   0.00    0.0
1316 521490.000   35.160893925  139.613836848    82.7735   6   6  10.7497   5.9975  15.0782   5.3703   6.2492   5.3885   0.00    0.0
1316 521520.000   35.160893329  139.613835358    82.6745   6   6  10.7468   6.0105  15.0578   5.3649   6.2746   5.3123   0.00    0.0
1316 521550.000   35.160894604  139.613838150    82.7508   6   6  10.7428   6.0233  15.0375   5.3581   6.2992   5.2326   0.00    0.0
1316 521580.000   35.160893538  139.613835735    82.6036   6   6  10.7378   6.0358  15.0172   5.3500   6.3230   5.1492   0.00    0.0
1316 521610.000   35.160894250  139.613837141    82.6368   6   6  10.7318   6.0480  14.9969   5.3405   6.3460   5.0620   0.00    0.0
1316 521640.000   35.160894358  139.613836969    83.0590   6   6  10.7247   6.0600  14.9768   5.3297   6.3683   4.9709   0.00    0.0
1316 521670.000   35.160894964  139.613835979    82.9391   6   6  10.7167   6.0718  14.9569   5.3175   6.3900   4.8757   0.00    0.0
1316 521700.000   35.160894674  139.613837847    83.3498   6   6  10.7078   6.0833  14.9372   5.3040   6.4110   4.7763   0.00    0.0
1316 521730.000   35.160894337  139.613836073    83.0715   6   6  10.6980   6.0946  14.9177   5.2891   6.4314   4.6724   0.00    0.0
1316 521760.000   35.160894197  139.613836436    82.7902   6   6  10.6873   6.1056  14.8985   5.2728   6.4512   4.5640   0.00    0.0
1316 521790.000   35.160892479  139.613835451    83.0811   6   6  10.6758   6.1164  14.8796   5.2551   6.4705   4.4506   0.00    0.0
1316 521820.000   35.160904309  139.613834825    86.1614   6   5  27.7206   8.2897  65.7887 -10.7452 -17.7693  40.7262   0.00    0.0
